[
    {
    "Longitude":"129.1693365",
    "설치일":"1998-12-26",
    "전화번호":"052-263-6634",
    "Latitude":"35.61800150",
    "주소":"울산광역시 울주군 두동명 천전각석길 11 ",
    "시설명":"동원직업재활원",
    "시설장":"김재영",
    "법인명":"동향원"
    },
    {
    "Longitude":"128.9670100",
    "설치일":"2010-03-01",
    "전화번호":"051-868-3534",
    "Latitude":"35.21923179",
    "주소":"부산광역시 강서구 대저로89번다길 70",
    "시설명":"부산장애인직업재활시설",
    "시설장":"오효미",
    "법인명":"양덕사회문화원"
    },
    {
    "Longitude":"128.9272621",
    "설치일":"1998-12-26",
    "전화번호":"055-329-3666",
    "Latitude":"35.29569271",
    "주소":"경상남도 김해시 상동면 장척로 611-21",
    "시설명":"베데스다직업재활원",
    "시설장":"박우춘",
    "법인명":"베데스다"
    },
    {
    "Longitude":"128.9015873",
    "설치일":"2017-08-28",
    "전화번호":"051-710-0913",
    "Latitude":"35.19538163",
    "주소":"부산광역시 강서구 가락대로 1469-7",
    "시설명":"한마음직업재활센터",
    "시설장":"서기석",
    "법인명":"수와천"
    },
    {
    "Longitude":"129.0955009",
    "설치일":"2014-12-23",
    "전화번호":"051-710-9747",
    "Latitude":"35.22402173",
    "주소":"부산광역시 금정구 가마실로 65-7",
    "시설명":"가마실로직업재활원",
    "시설장":"신진혁",
    "법인명":"태양의집"
    },
    {
    "Longitude":"129.0989667",
    "설치일":"2003-06-13",
    "전화번호":"051-529-3145",
    "Latitude":"35.21955549",
    "주소":"부산광역시 금정구 서부로 77",
    "시설명":"금정구장애인근로작업장",
    "시설장":"손현식",
    "법인명":"부산광역시금정구장애인협회"
    },
    {
    "Longitude":"129.1061589",
    "설치일":"2016-04-01",
    "전화번호":"051-862-8090",
    "Latitude":"35.21533454",
    "주소":"부산광역시 금정구 금사로 9, 비2",
    "시설명":"가꿈복지직업재활시설",
    "시설장":"박승기",
    "법인명":"가꿈복지"
    },
    {
    "Longitude":"129.2089295",
    "설치일":"2018-12-11",
    "전화번호":"051-711-8815",
    "Latitude":"35.32605636",
    "주소":"부산광역시 기장군 정관읍 예림1로 82",
    "시설명":"공존직업재활센터",
    "시설장":"이상우",
    "법인명":"한국장애인공존협회"
    },
    {
    "Longitude":"129.1768650",
    "설치일":"2011-11-11",
    "전화번호":"051-728-0070",
    "Latitude":"35.34243527",
    "주소":"부산광역시 기장군 정관면 병산로 127-25",
    "시설명":"동행과나눔",
    "시설장":"조성곤",
    "법인명":"반석복지재단"
    },
    {
    "Longitude":"129.0778108",
    "설치일":"2015-04-01",
    "전화번호":"051-612-0081",
    "Latitude":"35.12814682",
    "주소":"부산광역시 남구 유엔로25번길 58",
    "시설명":"든솔직업재활센터",
    "시설장":"김태영",
    "법인명":"든솔"
    },
    {
    "Longitude":"129.1115173",
    "설치일":"2004-08-16",
    "전화번호":"051-634-3417",
    "Latitude":"35.11854861",
    "주소":"부산광역시 남구 용호로 154",
    "시설명":"하나장애인직업재활시설",
    "시설장":"권도형",
    "법인명":"로사리오카리타스"
    },
    {
    "Longitude":"129.0429443",
    "설치일":"2009-06-10",
    "전화번호":"051-465-3511",
    "Latitude":"35.11798704",
    "주소":"부산광역시 동구 중앙대로236번길 13-5",
    "시설명":"참일터직업재활원",
    "시설장":"손기식",
    "법인명":"참일터"
    },
    {
    "Longitude":"129.0995842",
    "설치일":"2010-04-26",
    "전화번호":"051-527-1004",
    "Latitude":"35.20915696",
    "주소":"부산광역시 동래구 시실로211번길 69-2",
    "시설명":"도영센터",
    "시설장":"최영지",
    "법인명":"도영"
    },
    {
    "Longitude":"129.0625260",
    "설치일":"2011-12-06",
    "전화번호":"051-506-4912",
    "Latitude":"35.20644160",
    "주소":"부산광역시 동래구 쇠미로 179",
    "시설명":"신라직업재활시설",
    "시설장":"정미주",
    "법인명":"박영학원"
    },
    {
    "Longitude":"129.0666157",
    "설치일":"2017-09-04",
    "전화번호":"051-529-1678",
    "Latitude":"35.20425128",
    "주소":"부산광역시 동래구 아시아드대로 225",
    "시설명":"온사랑직업재활센터",
    "시설장":"서재용",
    "법인명":"장산복지"
    },
    {
    "Longitude":"129.0377476",
    "설치일":"2012-12-14",
    "전화번호":"051-807-6877",
    "Latitude":"35.16573365",
    "주소":"부산광역시 부산진구 당감로45번길 24",
    "시설명":"동인직업재활센터",
    "시설장":"이상우",
    "법인명":"동인복지재단"
    },
    {
    "Longitude":"129.0603369",
    "설치일":"2016-09-20",
    "전화번호":"051-926-0522",
    "Latitude":"35.15635258",
    "주소":"부산광역시 부산진구 동천로85번길 31-8",
    "시설명":"부산장애인직업적응훈련센터",
    "시설장":"임정환",
    "법인명":"문화복지 공감"
    },
    {
    "Longitude":"129.0561463",
    "설치일":"1999-04-29",
    "전화번호":"051-902-9128",
    "Latitude":"35.17771616",
    "주소":"부산광역시 부산진구 성지로62번길 40",
    "시설명":"신애직업재활원",
    "시설장":"안명희",
    "법인명":"신애재활원"
    },
    {
    "Longitude":"129.0457175",
    "설치일":"2019-08-30",
    "전화번호":"051-892-9800",
    "Latitude":"35.15808430",
    "주소":"부산광역시 부산진구 마철로 51",
    "시설명":"토리직업재활센터",
    "시설장":"장옥순",
    "법인명":"토리"
    },
    {
    "Longitude":"129.0658484",
    "설치일":"2021-01-01",
    "전화번호":"051-710-8190",
    "Latitude":"35.16404711",
    "주소":"부산광역시 부산진구 전포대로300번길 6, 6층",
    "시설명":"부산진구장애인보호작업장",
    "시설장":"곽성은",
    "법인명":"주는사랑복지재단"
    },
    {
    "Longitude":"129.0171995",
    "설치일":"2009-10-26",
    "전화번호":"051-343-7797",
    "Latitude":"35.22473299",
    "주소":"부산광역시 북구 의성로109길 8",
    "시설명":"로뎀직업재활센터",
    "시설장":"김소덕",
    "법인명":"로뎀복지재단"
    },
    {
    "Longitude":"129.0198938",
    "설치일":"2003-11-25",
    "전화번호":"051-335-7749",
    "Latitude":"35.24425233",
    "주소":"부산광역시 북구 양달로 65 ",
    "시설명":"평화직업재활원",
    "시설장":"정영희",
    "법인명":"평화의집"
    },
    {
    "Longitude":"129.0003602",
    "설치일":"2015-12-09",
    "전화번호":"051-304-9747",
    "Latitude":"35.18542862",
    "주소":"부산광역시 사상구 모라로192번길 2",
    "시설명":"사상구장애인근로작업장",
    "시설장":"전세현",
    "법인명":"사상구장애인협회"
    },
    {
    "Longitude":"128.9847515",
    "설치일":"2017-05-17",
    "전화번호":"051-327-7720",
    "Latitude":"35.16760990",
    "주소":"부산광역시 사상구 운산로 77",
    "시설명":"지원직업재활원",
    "시설장":"박서현",
    "법인명":"지원"
    },
    {
    "Longitude":"128.9879178",
    "설치일":"2015-01-01",
    "전화번호":"051-325-7300",
    "Latitude":"35.16438412",
    "주소":"부산광역시 사상구 광장로103번길 34, 1층",
    "시설명":"한마음직업재활원",
    "시설장":"박준형",
    "법인명":"부산광역시한마음 장애인지원센터"
    },
    {
    "Longitude":"128.9654722",
    "설치일":"2017-09-05",
    "전화번호":"051-293-9104",
    "Latitude":"35.10793909",
    "주소":"부산광역시 사하구 낙동남로1405번길 26",
    "시설명":"굿윌코리아보호작업장",
    "시설장":"김성태",
    "법인명":"호산나복지재단"
    },
    {
    "Longitude":"128.9615070",
    "설치일":"2016-12-29",
    "전화번호":"051-204-1042",
    "Latitude":"35.10376106",
    "주소":"부산광역시 사하구 동매로 29, 2층",
    "시설명":"꿈모아직업재활센터",
    "시설장":"최성재",
    "법인명":"든솔"
    },
    {
    "Longitude":"128.9793027",
    "설치일":"2020-04-08",
    "전화번호":"051-263-4214",
    "Latitude":"35.06291067",
    "주소":"부산광역시 사하구 다대로 447, 501호",
    "시설명":"시온직업재활시설",
    "시설장":"강은미",
    "법인명":"빛과소금"
    },
    {
    "Longitude":"129.0236363",
    "설치일":"2017-04-01",
    "전화번호":"051-926-9005",
    "Latitude":"35.11099472",
    "주소":"부산광역시 서구 보수대로154번길 40",
    "시설명":"꿈나래직업재활시설",
    "시설장":"박재석",
    "법인명":"부산광역시서구장애인협회"
    },
    {
    "Longitude":"129.0190211",
    "설치일":"1988-11-03",
    "전화번호":"051-246-4084",
    "Latitude":"35.08042192",
    "주소":"부산광역시 서구 천해로7번길 55-10",
    "시설명":"천마도예의숲",
    "시설장":"황소인",
    "법인명":"천마"
    },
    {
    "Longitude":"129.1158438",
    "설치일":"2011-12-05",
    "전화번호":"051-714-0030",
    "Latitude":"35.16703060",
    "주소":"부산광역시 수영구 수영로 690-5, 수영메디세움 402호",
    "시설명":"도영하우스",
    "시설장":"노경수",
    "법인명":"도영"
    },
    {
    "Longitude":"129.1059129",
    "설치일":"2013-12-16",
    "전화번호":"051-755-0383",
    "Latitude":"35.17941670",
    "주소":"부산광역시 수영구 과정로91번길19-2 ,1층",
    "시설명":"징검다리",
    "시설장":"홍석관",
    "법인명":"한국지적발달장애인복지협회"
    },
    {
    "Longitude":"129.1391381",
    "설치일":"1988-05-26",
    "전화번호":"055-365-2820",
    "Latitude":"35.38818036",
    "주소":"경상남도 양산시 신명3길 125",
    "시설명":"두배일터",
    "시설장":"장윤규",
    "법인명":"가온"
    },
    {
    "Longitude":"129.1020534",
    "설치일":"1999-05-11",
    "전화번호":"051-759-9213",
    "Latitude":"35.18140793",
    "주소":"부산광역시 연제구 톳고개로 48",
    "시설명":"부산직업재활원",
    "시설장":"배재훈",
    "법인명":"성우원"
    },
    {
    "Longitude":"129.0657737",
    "설치일":"2001-04-19",
    "전화번호":"051-503-6001",
    "Latitude":"35.18521240",
    "주소":"부산광역시 연제구 화지로 109",
    "시설명":"양지비전센터",
    "시설장":"탁정호",
    "법인명":"양지동산"
    },
    {
    "Longitude":"129.0657737",
    "설치일":"2000-06-29",
    "전화번호":"051-506-5432",
    "Latitude":"35.18521240",
    "주소":"부산광역시 연제구 화지로 109 ",
    "시설명":"양지직업재활원",
    "시설장":"박혜성",
    "법인명":"양지직업재활원"
    },
    {
    "Longitude":"129.1082758",
    "설치일":"2006-01-13",
    "전화번호":"051-754-9747",
    "Latitude":"35.18201810",
    "주소":"부산광역시 연제구 고분로242번길 56 ",
    "시설명":"태양의집직업재활원",
    "시설장":"황삼복",
    "법인명":"태양의집"
    },
    {
    "Longitude":"129.0650745",
    "설치일":"1998-12-07",
    "전화번호":"051-418-4448",
    "Latitude":"35.09040980",
    "주소":"부산광역시 영도구 일산봉로 95 ",
    "시설명":"천성직업재활원",
    "시설장":"김창민",
    "법인명":"천성직업재활원"
    },
    {
    "Longitude":"129.0373195",
    "설치일":"2007-07-13",
    "전화번호":"051-462-2106",
    "Latitude":"35.11045458",
    "주소":"부산광역시 중구 중앙대로 143-1",
    "시설명":"부산안마수련원",
    "시설장":"박정은",
    "법인명":"대한안마사협회"
    },
    {
    "Longitude":"129.1178065",
    "설치일":"1998-12-29",
    "전화번호":"051-523-5421",
    "Latitude":"35.20610546",
    "주소":"부산광역시 해운대구 삼어로91번길 11",
    "시설명":"영광직업재활원",
    "시설장":"박현기",
    "법인명":"동래원"
    },
    {
    "Longitude":"129.1780278",
    "설치일":"2019-12-06",
    "전화번호":"051-703-1678",
    "Latitude":"35.16851427",
    "주소":"부산광역시 해운대구 세실로27번길 19",
    "시설명":"장산직업재활센터",
    "시설장":"구영은",
    "법인명":"장산복지"
    },
    {
    "Longitude":"129.1258463",
    "설치일":"2013-06-03",
    "전화번호":"051-531-1116",
    "Latitude":"35.22204836",
    "주소":"부산광역시 해운대구 석대로 29",
    "시설명":"해운대장애인근로사업장",
    "시설장":"조혜정",
    "법인명":"부산광역시해운대구장애인협회"
    }
]